[
  {
    "phone": "031-299-5100",
    "address": "수원시 장안구 송정로 113",
    "latitude": 37.2957606,
    "longitude": 127.0095424,
    "name": "장안문지구대"
  },
  {
    "phone": "031-299-5101",
    "address": "수원시 장안구 이목로 58",
    "latitude": 37.3104042,
    "longitude": 126.9879953,
    "name": "노송지구대"
  },
  {
    "phone": "031-299-5102",
    "address": "수원시 팔달구 수성로182번길 3",
    "latitude": 37.2867914,
    "longitude": 126.9931645,
    "name": "화서문지구대"
  },
  {
    "phone": "031-299-5103",
    "address": "수원시 장안구 경수대로 758",
    "latitude": 37.2910967,
    "longitude": 127.0219435,
    "name": "창룡문지구대"
  },
  {
    "phone": "031-299-5104",
    "address": "수원시 팔달구 경수대로 621",
    "latitude": 37.2809348,
    "longitude": 127.0296476,
    "name": "동부파출소"
  },
  {
    "phone": "031-299-5105",
    "address": "수원시 장안구 하률로 2",
    "latitude": 37.3032173,
    "longitude": 126.9761023,
    "name": "율천파출소"
  },
  {
    "phone": "031-299-5106",
    "address": "수원시 찰달구 창룡대로 48",
    "latitude": 37.2830176,
    "longitude": 127.0213503,
    "name": "행궁파출소"
  },
  {
    "phone": "031-299-1118",
    "address": "수원시 팔달구 장다리로 312",
    "latitude": 37.2757403,
    "longitude": 127.0313965,
    "name": "인계지구대"
  },
  {
    "phone": "031-299-1128",
    "address": "수원시 영통구 매영로 93-18",
    "latitude": 37.2686813,
    "longitude": 127.0530505,
    "name": "산남지구대"
  },
  {
    "phone": "031-299-1138",
    "address": "수원시 권선구 권중로77",
    "latitude": 37.2518693,
    "longitude": 127.0299492,
    "name": "곡선지구대"
  },
  {
    "phone": "031-299-1148",
    "address": "수원시 영통구 청명로 92",
    "latitude": 37.2548382,
    "longitude": 127.0778241,
    "name": "영통지구대"
  },
  {
    "phone": "031-299-1158",
    "address": "수원시 팔달구 동수원로 403",
    "latitude": 37.2651598,
    "longitude": 127.0399537,
    "name": "매탄지구대"
  },
  {
    "phone": "031-299-1168",
    "address": "수원시 권선구 정조로 370",
    "latitude": 37.2427287,
    "longitude": 127.0152902,
    "name": "세류지구대"
  },
  {
    "phone": "031-299-1178",
    "address": "수원시 권선로 699번길 24-23",
    "latitude": 37.2598463,
    "longitude": 127.0295473,
    "name": "권선파출소"
  },
  {
    "phone": "031-299-1188",
    "address": "수원시 영통구 영통로 143",
    "latitude": 37.2403384,
    "longitude": 127.0554107,
    "name": "태장파출소"
  },
  {
    "phone": "031-299-1198",
    "address": "수원시 영통구 에듀타운로 82",
    "latitude": 37.288623,
    "longitude": 127.0476734,
    "name": "광교지구대"
  },
  {
    "phone": "031-8012-1090",
    "address": "수원시 팔달구 덕영대로 944",
    "latitude": 37.2661683,
    "longitude": 126.9998913,
    "name": "매산지구대"
  },
  {
    "phone": "031-8012-1092",
    "address": "수원시 권선구 구운로73번길 18-13",
    "latitude": 37.28075,
    "longitude": 126.971372,
    "name": "서호지구대"
  },
  {
    "phone": "031-8012-1094",
    "address": "수원시 권선구 서부로 1673",
    "latitude": 37.258604,
    "longitude": 126.972393,
    "name": "고색파출소"
  },
  {
    "phone": "031-8012-1095",
    "address": "수원시 팔달구 고등동 고등로 50",
    "latitude": 37.2732509,
    "longitude": 127.0020574,
    "name": "고등파출소"
  },
  {
    "phone": "031-8012-1093",
    "address": "수원시 권선구 금곡동 금곡로 190",
    "latitude": 37.273166,
    "longitude": 126.9515809,
    "name": "호매실지구대"
  },
  {
    "phone": "031-8012-1096",
    "address": "수원시 팔달구 매교동 매산로 116번길 50",
    "latitude": 37.2691117,
    "longitude": 127.0143849,
    "name": "유천파출소"
  },
  {
    "phone": "031-8012-1097",
    "address": "수원시 권선구 당진로 32번길 28-4",
    "latitude": 37.2917815,
    "longitude": 126.9418358,
    "name": "당수파출소"
  }
]
