[{"name":"가톨릭대학교 성빈센트병원", "type" : "상급종합", "longitude" : 127.0274271, "latitude" : 37.2779855},
{"name":"가톨릭대학교인천성모병원", "type" : "상급종합", "longitude" : 126.7248987, "latitude" : 37.4848309},
{"name":"강릉아산병원", "type" : "상급종합", "longitude" : 128.8578411, "latitude" : 37.8184325},
{"name":"강북삼성병원", "type" : "상급종합", "longitude" : 126.9677500, "latitude" : 37.5684083},
{"name":"건국대학교병원", "type" : "상급종합", "longitude" : 127.0718276, "latitude" : 37.5403764},
{"name":"경북대학교병원", "type" : "상급종합", "longitude" : 128.6047030, "latitude" : 35.8662525},
{"name":"경상국립대학교병원", "type" : "상급종합", "longitude" : 128.0964924, "latitude" : 35.1759944},
{"name":"경희대학교병원", "type" : "상급종합", "longitude" : 127.0518520, "latitude" : 37.5941195},
{"name":"계명대학교동산병원", "type" : "상급종합", "longitude" : 128.4801315, "latitude" : 35.8538856},
{"name":"고려대학교의과대학부속구로병원", "type" : "상급종합", "longitude" : 126.8848701, "latitude" : 37.4920520},
{"name":"고려대학교의과대학부속안산병원", "type" : "상급종합", "longitude" : 126.8249033, "latitude" : 37.3185144},
{"name":"고신대학교복음병원", "type" : "상급종합", "longitude" : 129.0139595, "latitude" : 35.0809636},
{"name":"단국대학교의과대학부속병원", "type" : "상급종합", "longitude" : 127.1725750, "latitude" : 36.8415904},
{"name":"대구가톨릭대학교병원", "type" : "상급종합", "longitude" : 128.5679969, "latitude" : 35.8436078},
{"name":"동아대학교병원", "type" : "상급종합", "longitude" : 129.0175391, "latitude" : 35.1201682},
{"name":"부산대학교병원", "type" : "상급종합", "longitude" : 129.0188032, "latitude" : 35.1008477},
{"name":"분당서울대학교병원", "type" : "상급종합", "longitude" : 127.1232509, "latitude" : 37.3519807},
{"name":"삼성서울병원", "type" : "상급종합", "longitude" : 127.0851508, "latitude" : 37.4882977},
{"name":"서울대학교병원", "type" : "상급종합", "longitude" : 126.9990168, "latitude" : 37.5797151},
{"name":"순천향대학교부속부천병원", "type" : "상급종합", "longitude" : 126.7629626, "latitude" : 37.4986998},
{"name":"아주대학교병원", "type" : "상급종합", "longitude" : 127.0476837, "latitude" : 37.2794612},
{"name":"양산부산대학교병원", "type" : "상급종합", "longitude" : 129.0057274, "latitude" : 35.3281501},
{"name":"연세대학교 원주세브란스기독병원", "type" : "상급종합", "longitude" : 127.9456639, "latitude" : 37.3490013},
{"name":"연세대학교의과대학 강남세브란스병원", "type" : "상급종합", "longitude" : 127.0462683, "latitude" : 37.4929296},
{"name":"연세대학교의과대학세브란스병원", "type" : "상급종합", "longitude" : 126.9408265, "latitude" : 37.5623446},
{"name":"영남대학교병원", "type" : "상급종합", "longitude" : 128.5820500, "latitude" : 35.8481070},
{"name":"원광대학교병원", "type" : "상급종합", "longitude" : 126.9595793, "latitude" : 35.9646389},
{"name":"의료법인 길의료재단 길병원", "type" : "상급종합", "longitude" : 126.7092258, "latitude" : 37.4521710},
{"name":"이화여자대학교의과대학부속목동병원", "type" : "상급종합", "longitude" : 126.8862379, "latitude" : 37.5362859},
{"name":"인제대학교부산백병원", "type" : "상급종합", "longitude" : 129.0208609, "latitude" : 35.1455173},
{"name":"인하대학교의과대학부속병원", "type" : "상급종합", "longitude" : 126.6340955, "latitude" : 37.4586786},
{"name":"재단법인아산사회복지재단 서울아산병원", "type" : "상급종합", "longitude" : 127.1079350, "latitude" : 37.5265762},
{"name":"전남대학교병원", "type" : "상급종합", "longitude" : 126.9215805, "latitude" : 35.1418094},
{"name":"전북대학교병원", "type" : "상급종합", "longitude" : 127.1411626, "latitude" : 35.8470974},
{"name":"조선대학교병원", "type" : "상급종합", "longitude" : 126.9261468, "latitude" : 35.1390538},
{"name":"중앙대학교병원", "type" : "상급종합", "longitude" : 126.9607839, "latitude" : 37.5067481},
{"name":"충남대학교병원", "type" : "상급종합", "longitude" : 127.4153630, "latitude" : 36.3169080},
{"name":"충북대학교병원", "type" : "상급종합", "longitude" : 127.4614843, "latitude" : 36.6242237},
{"name":"칠곡경북대학교병원", "type" : "상급종합", "longitude" : 128.5646727, "latitude" : 35.9564207},
{"name":"학교법인 건양교육재단 건양대학교병원", "type" : "상급종합", "longitude" : 127.3426130, "latitude" : 36.3066420},
{"name":"학교법인 고려중앙학원 고려대학교의과대학부속병원(안암병원)", "type" : "상급종합", "longitude" : 127.0263537, "latitude" : 37.5870165},
{"name":"학교법인 울산공업학원 울산대학교병원", "type" : "상급종합", "longitude" : 129.4289116, "latitude" : 35.5200702},
{"name":"학교법인가톨릭학원가톨릭대학교서울성모병원", "type" : "상급종합", "longitude" : 127.0051154, "latitude" : 37.5009444},
{"name":"학교법인성균관대학삼성창원병원", "type" : "상급종합", "longitude" : 128.5923771, "latitude" : 35.2424957},
{"name":"한림대학교성심병원", "type" : "상급종합", "longitude" : 126.9620529, "latitude" : 37.3917575},
{"name":"한양대학교병원", "type" : "상급종합", "longitude" : 127.0441339, "latitude" : 37.5596569},
{"name":"화순전남대학교병원", "type" : "상급종합", "longitude" : 127.0025000, "latitude" : 35.0594333},
{"name":"의)나사렛의료재단 나사렛국제병원", "type" : "종합병원", "longitude" : 126.6704928, "latitude" : 37.4079580},
{"name":"의)성세의료재단 뉴성민병원", "type" : "종합병원", "longitude" : 126.6698519, "latitude" : 37.5097753},
{"name":"의)영문의료재단 다보스병원", "type" : "종합병원", "longitude" : 127.2114648, "latitude" : 37.2314883},
{"name":"재)미리내천주성삼성직수도회천주성삼병원", "type" : "종합병원", "longitude" : 128.7057102, "latitude" : 35.8402518},
{"name":"KS병원", "type" : "종합병원", "longitude" : 126.8331484, "latitude" : 35.1979238},
{"name":"가톨릭관동대학교 국제성모병원", "type" : "종합병원", "longitude" : 126.6836103, "latitude" : 37.5424165},
{"name":"가톨릭대학교 여의도성모병원", "type" : "종합병원", "longitude" : 126.9367517, "latitude" : 37.5183253},
{"name":"가톨릭대학교 은평성모병원", "type" : "종합병원", "longitude" : 126.9161912, "latitude" : 37.6334945},
{"name":"가톨릭대학교부천성모병원", "type" : "종합병원", "longitude" : 126.7924167, "latitude" : 37.4871165},
{"name":"가톨릭대학교의정부성모병원", "type" : "종합병원", "longitude" : 127.0777625, "latitude" : 37.7587045},
{"name":"강남베드로병원", "type" : "종합병원", "longitude" : 127.0396045, "latitude" : 37.4856196},
{"name":"강남병원", "type" : "종합병원", "longitude" : 127.1115072, "latitude" : 37.2737515},
{"name":"강남종합병원", "type" : "종합병원", "longitude" : 128.6639117, "latitude" : 35.8827739},
{"name":"강동경희대학교의대병원", "type" : "종합병원", "longitude" : 127.1576732, "latitude" : 37.5535361},
{"name":"강원대학교병원", "type" : "종합병원", "longitude" : 127.7448910, "latitude" : 37.8751611},
{"name":"강원특별자치도강릉의료원", "type" : "종합병원", "longitude" : 128.8888317, "latitude" : 37.7492828},
{"name":"강원특별자치도삼척의료원", "type" : "종합병원", "longitude" : 129.1638017, "latitude" : 37.4403018},
{"name":"강원특별자치도속초의료원", "type" : "종합병원", "longitude" : 128.5892485, "latitude" : 38.2164607},
{"name":"강원특별자치도영월의료원", "type" : "종합병원", "longitude" : 128.4652388, "latitude" : 37.1864525},
{"name":"강원특별자치도원주의료원", "type" : "종합병원", "longitude" : 127.9492250, "latitude" : 37.3326080},
{"name":"강일병원", "type" : "종합병원", "longitude" : 128.8696709, "latitude" : 35.2566817},
{"name":"건국대학교 충주병원", "type" : "종합병원", "longitude" : 127.9288169, "latitude" : 36.9789801},
{"name":"검단탑병원", "type" : "종합병원", "longitude" : 126.6711792, "latitude" : 37.5924835},
{"name":"경기도의료원 수원병원", "type" : "종합병원", "longitude" : 126.9963375, "latitude" : 37.2918917},
{"name":"경기도의료원 안성병원", "type" : "종합병원", "longitude" : 127.2603668, "latitude" : 37.0173531},
{"name":"경기도의료원 이천병원", "type" : "종합병원", "longitude" : 127.4330563, "latitude" : 37.2828595},
{"name":"경기도의료원의정부병원", "type" : "종합병원", "longitude" : 127.0425004, "latitude" : 37.7411610},
{"name":"경기도의료원파주병원", "type" : "종합병원", "longitude" : 126.7801503, "latitude" : 37.7550649},
{"name":"경기도의료원포천병원", "type" : "종합병원", "longitude" : 127.1982800, "latitude" : 37.9033163},
{"name":"경상남도마산의료원", "type" : "종합병원", "longitude" : 128.5655967, "latitude" : 35.1992371},
{"name":"경상북도김천의료원", "type" : "종합병원", "longitude" : 128.1264391, "latitude" : 36.1227232},
{"name":"경상북도안동의료원", "type" : "종합병원", "longitude" : 128.7321116, "latitude" : 36.5682206},
{"name":"경상북도포항의료원", "type" : "종합병원", "longitude" : 129.3549409, "latitude" : 36.0348814},
{"name":"경찰병원", "type" : "종합병원", "longitude" : 127.1235090, "latitude" : 37.4963836},
{"name":"계명대학교대구동산병원", "type" : "종합병원", "longitude" : 128.5831323, "latitude" : 35.8694728},
{"name":"곽병원", "type" : "종합병원", "longitude" : 128.5885849, "latitude" : 35.8710213},
{"name":"광명성애병원", "type" : "종합병원", "longitude" : 126.8713502, "latitude" : 37.4736659},
{"name":"광양사랑병원", "type" : "종합병원", "longitude" : 127.6969657, "latitude" : 34.9361846},
{"name":"광주기독병원", "type" : "종합병원", "longitude" : 126.9118750, "latitude" : 35.1366650},
{"name":"광주보훈병원", "type" : "종합병원", "longitude" : 126.8496720, "latitude" : 35.2079032},
{"name":"광주센트럴병원", "type" : "종합병원", "longitude" : 126.8291069, "latitude" : 35.1857756},
{"name":"광주수완병원", "type" : "종합병원", "longitude" : 126.8241888, "latitude" : 35.1930960},
{"name":"광주씨티병원", "type" : "종합병원", "longitude" : 126.8994848, "latitude" : 35.1177147},
{"name":"광주일곡병원", "type" : "종합병원", "longitude" : 126.8976135, "latitude" : 35.2028543},
{"name":"광주한국병원", "type" : "종합병원", "longitude" : 126.8688164, "latitude" : 35.1562166},
{"name":"광주현대병원", "type" : "종합병원", "longitude" : 126.8979250, "latitude" : 35.1856760},
{"name":"광주희망병원", "type" : "종합병원", "longitude" : 126.8747341, "latitude" : 35.2134937},
{"name":"구로성심병원", "type" : "종합병원", "longitude" : 126.8664159, "latitude" : 37.4996715},
{"name":"구미강동병원", "type" : "종합병원", "longitude" : 128.4228695, "latitude" : 36.0962390},
{"name":"구포성심병원", "type" : "종합병원", "longitude" : 129.0047235, "latitude" : 35.2097133},
{"name":"국군수도병원", "type" : "종합병원", "longitude" : 127.1490674, "latitude" : 37.3923789},
{"name":"국립암센터", "type" : "종합병원", "longitude" : 126.7834097, "latitude" : 37.6632301},
{"name":"국립중앙의료원", "type" : "종합병원", "longitude" : 127.0056710, "latitude" : 37.5672138},
{"name":"국민건강보험공단일산병원", "type" : "종합병원", "longitude" : 126.7930401, "latitude" : 37.6454754},
{"name":"근로복지공단 대전병원", "type" : "종합병원", "longitude" : 127.4285488, "latitude" : 36.3683976},
{"name":"근로복지공단 동해병원", "type" : "종합병원", "longitude" : 129.1060780, "latitude" : 37.5321225},
{"name":"근로복지공단 순천병원", "type" : "종합병원", "longitude" : 127.5249267, "latitude" : 34.9611351},
{"name":"근로복지공단 창원병원", "type" : "종합병원", "longitude" : 128.6717512, "latitude" : 35.2187539},
{"name":"근로복지공단 태백병원", "type" : "종합병원", "longitude" : 129.0043366, "latitude" : 37.1040964},
{"name":"근로복지공단안산병원", "type" : "종합병원", "longitude" : 126.8741390, "latitude" : 37.3167269},
{"name":"근로복지공단인천병원", "type" : "종합병원", "longitude" : 126.7536333, "latitude" : 37.4767018},
{"name":"기쁨병원", "type" : "종합병원", "longitude" : 127.0180814, "latitude" : 37.4827157},
{"name":"나사렛종합병원", "type" : "종합병원", "longitude" : 128.5250947, "latitude" : 35.8147003},
{"name":"나주종합병원", "type" : "종합병원", "longitude" : 126.7213975, "latitude" : 35.0363159},
{"name":"남양주 한양병원", "type" : "종합병원", "longitude" : 127.2043933, "latitude" : 37.6823474},
{"name":"노원을지대학교병원", "type" : "종합병원", "longitude" : 127.0699355, "latitude" : 37.6364794},
{"name":"녹색병원", "type" : "종합병원", "longitude" : 127.0860738, "latitude" : 37.5835731},
{"name":"뉴대성병원", "type" : "종합병원", "longitude" : 126.7841872, "latitude" : 37.4925524},
{"name":"당진종합병원", "type" : "종합병원", "longitude" : 126.6844489, "latitude" : 36.9044003},
{"name":"대구가톨릭대학교 칠곡가톨릭병원", "type" : "종합병원", "longitude" : 128.5493894, "latitude" : 35.9348614},
{"name":"대구굿모닝병원", "type" : "종합병원", "longitude" : 128.5740875, "latitude" : 35.8530071},
{"name":"대구의료원", "type" : "종합병원", "longitude" : 128.5405870, "latitude" : 35.8596400},
{"name":"대구파티마병원", "type" : "종합병원", "longitude" : 128.6244071, "latitude" : 35.8842611},
{"name":"대동병원", "type" : "종합병원", "longitude" : 129.0802033, "latitude" : 35.2042538},
{"name":"대림성모병원", "type" : "종합병원", "longitude" : 126.9072208, "latitude" : 37.4906979},
{"name":"대아의료재단한도병원", "type" : "종합병원", "longitude" : 126.8076223, "latitude" : 37.3340586},
{"name":"대자인병원", "type" : "종합병원", "longitude" : 127.1534707, "latitude" : 35.8459659},
{"name":"대전보훈병원", "type" : "종합병원", "longitude" : 127.4396417, "latitude" : 36.4473355},
{"name":"대전한국병원", "type" : "종합병원", "longitude" : 127.4358152, "latitude" : 36.3482008},
{"name":"대진의료재단 분당제생병원", "type" : "종합병원", "longitude" : 127.1217783, "latitude" : 37.3882035},
{"name":"대청병원", "type" : "종합병원", "longitude" : 127.3705716, "latitude" : 36.3082388},
{"name":"더블유병원", "type" : "종합병원", "longitude" : 128.5449481, "latitude" : 35.8526313},
{"name":"동국대학교의과대학경주병원", "type" : "종합병원", "longitude" : 129.1966582, "latitude" : 35.8583076},
{"name":"동국대학교일산불교병원", "type" : "종합병원", "longitude" : 126.8064233, "latitude" : 37.6763969},
{"name":"동남권원자력의학원원자력병원", "type" : "종합병원", "longitude" : 129.2435492, "latitude" : 35.3214002},
{"name":"동래봉생병원", "type" : "종합병원", "longitude" : 129.0961356, "latitude" : 35.1969224},
{"name":"동아병원", "type" : "종합병원", "longitude" : 126.8999505, "latitude" : 35.1348132},
{"name":"드림종합병원", "type" : "종합병원", "longitude" : 128.5744911, "latitude" : 35.8395584},
{"name":"메디인병원", "type" : "종합병원", "longitude" : 126.7666690, "latitude" : 37.7610733},
{"name":"명주병원", "type" : "종합병원", "longitude" : 127.2010803, "latitude" : 37.2353957},
{"name":"명지성모병원", "type" : "종합병원", "longitude" : 126.8992626, "latitude" : 37.4938623},
{"name":"목포기독병원", "type" : "종합병원", "longitude" : 126.4206000, "latitude" : 34.8045333},
{"name":"목포시의료원", "type" : "종합병원", "longitude" : 126.4053627, "latitude" : 34.8039839},
{"name":"목포한국병원", "type" : "종합병원", "longitude" : 126.4162693, "latitude" : 34.8093820},
{"name":"미래로21병원", "type" : "종합병원", "longitude" : 126.8852856, "latitude" : 35.1410330},
{"name":"미즈메디병원", "type" : "종합병원", "longitude" : 126.8359357, "latitude" : 37.5522178},
{"name":"베데스다복음병원", "type" : "종합병원", "longitude" : 129.0435924, "latitude" : 35.3532447},
{"name":"부민병원", "type" : "종합병원", "longitude" : 126.8509273, "latitude" : 37.5568660},
{"name":"부산광역시의료원", "type" : "종합병원", "longitude" : 129.0592351, "latitude" : 35.1872822},
{"name":"부산성모병원(재단법인 천주교부산교구유지재단)", "type" : "종합병원", "longitude" : 129.1091250, "latitude" : 35.1104571},
{"name":"부안성모병원", "type" : "종합병원", "longitude" : 126.7345709, "latitude" : 35.7248401},
{"name":"부천세종병원", "type" : "종합병원", "longitude" : 126.7913172, "latitude" : 37.4809662},
{"name":"부천우리병원", "type" : "종합병원", "longitude" : 126.8052027, "latitude" : 37.5208668},
{"name":"부평세림병원", "type" : "종합병원", "longitude" : 126.7199858, "latitude" : 37.5068720},
{"name":"비에스종합병원", "type" : "종합병원", "longitude" : 126.4859916, "latitude" : 37.7360483},
{"name":"비에이치에스한서병원", "type" : "종합병원", "longitude" : 129.1131037, "latitude" : 35.1608800},
{"name":"빛가람종합병원", "type" : "종합병원", "longitude" : 126.7987186, "latitude" : 35.0242155},
{"name":"빛고을전남대학교병원", "type" : "종합병원", "longitude" : 126.8963045, "latitude" : 35.0943936},
{"name":"삼육부산병원", "type" : "종합병원", "longitude" : 129.0110653, "latitude" : 35.1127676},
{"name":"삼육서울병원", "type" : "종합병원", "longitude" : 127.0635533, "latitude" : 37.5862119},
{"name":"삼일병원", "type" : "종합병원", "longitude" : 128.5535826, "latitude" : 35.8324956},
{"name":"상무병원", "type" : "종합병원", "longitude" : 126.8538803, "latitude" : 35.1527509},
{"name":"상주적십자병원", "type" : "종합병원", "longitude" : 128.1555556, "latitude" : 36.4146221},
{"name":"새통영병원", "type" : "종합병원", "longitude" : 128.4207171, "latitude" : 34.8653483},
{"name":"서광병원", "type" : "종합병원", "longitude" : 126.8557303, "latitude" : 35.1325949},
{"name":"서남대학교병원", "type" : "종합병원", "longitude" : 126.9150205, "latitude" : 35.1447273},
{"name":"서산중앙병원", "type" : "종합병원", "longitude" : 126.5034636, "latitude" : 36.7810108},
{"name":"서울산보람병원", "type" : "종합병원", "longitude" : 129.1210036, "latitude" : 35.5597987},
{"name":"서울성심병원", "type" : "종합병원", "longitude" : 127.0497296, "latitude" : 37.5843076},
{"name":"서울적십자병원", "type" : "종합병원", "longitude" : 126.9669974, "latitude" : 37.5671805},
{"name":"서울특별시 동부병원", "type" : "종합병원", "longitude" : 127.0313410, "latitude" : 37.5753681},
{"name":"서울특별시보라매병원", "type" : "종합병원", "longitude" : 126.9239058, "latitude" : 37.4934414},
{"name":"서울특별시서남병원", "type" : "종합병원", "longitude" : 126.8331531, "latitude" : 37.5120195},
{"name":"서울특별시서울의료원", "type" : "종합병원", "longitude" : 127.0978309, "latitude" : 37.6132762},
{"name":"선한병원", "type" : "종합병원", "longitude" : 126.8869935, "latitude" : 35.1615964},
{"name":"성가롤로병원", "type" : "종합병원", "longitude" : 127.5437074, "latitude" : 34.9647334},
{"name":"성남시의료원", "type" : "종합병원", "longitude" : 127.1390577, "latitude" : 37.4449846},
{"name":"성남중앙병원", "type" : "종합병원", "longitude" : 127.1619932, "latitude" : 37.4528497},
{"name":"성심의료재단강동성심병원", "type" : "종합병원", "longitude" : 127.1353780, "latitude" : 37.5359971},
{"name":"성애의료재단 성애병원", "type" : "종합병원", "longitude" : 126.9225003, "latitude" : 37.5120274},
{"name":"세란병원", "type" : "종합병원", "longitude" : 126.9574607, "latitude" : 37.5751835},
{"name":"세종충남대학교병원", "type" : "종합병원", "longitude" : 127.2579427, "latitude" : 36.5195133},
{"name":"속초보광병원", "type" : "종합병원", "longitude" : 128.5783901, "latitude" : 38.1980014},
{"name":"순천의료재단 성남정병원", "type" : "종합병원", "longitude" : 127.1290046, "latitude" : 37.4398589},
{"name":"순천중앙병원", "type" : "종합병원", "longitude" : 127.4844458, "latitude" : 34.9514574},
{"name":"순천향대학교 부속 구미병원", "type" : "종합병원", "longitude" : 128.3827377, "latitude" : 36.1029182},
{"name":"순천향대학교 부속 서울병원", "type" : "종합병원", "longitude" : 127.0042579, "latitude" : 37.5338040},
{"name":"순천향대학교부속 천안병원", "type" : "종합병원", "longitude" : 127.1358588, "latitude" : 36.8027381},
{"name":"신가병원", "type" : "종합병원", "longitude" : 126.8296527, "latitude" : 35.1774148},
{"name":"씨엠병원", "type" : "종합병원", "longitude" : 126.9041862, "latitude" : 37.5188597},
{"name":"아산충무병원", "type" : "종합병원", "longitude" : 127.0198062, "latitude" : 36.7792648},
{"name":"안동성소병원", "type" : "종합병원", "longitude" : 128.7228172, "latitude" : 36.5672423},
{"name":"안성성모병원", "type" : "종합병원", "longitude" : 127.2709213, "latitude" : 37.0062179},
{"name":"에스포항병원", "type" : "종합병원", "longitude" : 129.3314538, "latitude" : 36.0348843},
{"name":"여수전남병원", "type" : "종합병원", "longitude" : 127.7280180, "latitude" : 34.7450673},
{"name":"여천전남병원", "type" : "종합병원", "longitude" : 127.6543239, "latitude" : 34.7691121},
{"name":"연세대학교 의과대학 용인세브란스병원", "type" : "종합병원", "longitude" : 127.1485144, "latitude" : 37.2708050},
{"name":"연세에스병원", "type" : "종합병원", "longitude" : 128.6981494, "latitude" : 35.1549332},
{"name":"영광종합병원", "type" : "종합병원", "longitude" : 126.4989779, "latitude" : 35.2844615},
{"name":"영남대학교의과대학부속영천병원", "type" : "종합병원", "longitude" : 128.9132120, "latitude" : 35.9572850},
{"name":"영도병원", "type" : "종합병원", "longitude" : 129.0405236, "latitude" : 35.0922416},
{"name":"영주적십자병원", "type" : "종합병원", "longitude" : 128.6039024, "latitude" : 36.8252688},
{"name":"오산한국병원", "type" : "종합병원", "longitude" : 127.0753662, "latitude" : 37.1412709},
{"name":"온누리병원", "type" : "종합병원", "longitude" : 126.6543363, "latitude" : 37.6027927},
{"name":"우리들병원", "type" : "종합병원", "longitude" : 126.7963265, "latitude" : 37.5620454},
{"name":"운암한국병원", "type" : "종합병원", "longitude" : 126.8696694, "latitude" : 35.1850041},
{"name":"울산병원", "type" : "종합병원", "longitude" : 129.3231103, "latitude" : 35.5462649},
{"name":"울산엘리야병원", "type" : "종합병원", "longitude" : 129.3505372, "latitude" : 35.6288626},
{"name":"원광대학교 산본병원", "type" : "종합병원", "longitude" : 126.9336147, "latitude" : 37.3594127},
{"name":"의료법인 갈렌의료재단 박병원", "type" : "종합병원", "longitude" : 127.0570008, "latitude" : 37.0482657},
{"name":"의료법인 강릉동인병원", "type" : "종합병원", "longitude" : 128.9073500, "latitude" : 37.7743500},
{"name":"의료법인 거붕 백병원", "type" : "종합병원", "longitude" : 128.6261659, "latitude" : 34.8736095},
{"name":"의료법인 건명의료재단 중앙제일병원", "type" : "종합병원", "longitude" : 127.4404044, "latitude" : 36.8585629},
{"name":"의료법인 광혜의료재단 광혜병원", "type" : "종합병원", "longitude" : 129.0711482, "latitude" : 35.2070105},
{"name":"의료법인 근원의료재단 경산중앙병원", "type" : "종합병원", "longitude" : 128.7401912, "latitude" : 35.8088799},
{"name":"의료법인 남촌의료재단 시화병원", "type" : "종합병원", "longitude" : 126.7369422, "latitude" : 37.3499313},
{"name":"의료법인 녹산의료재단동수원병원", "type" : "종합병원", "longitude" : 127.0345487, "latitude" : 37.2780649},
{"name":"의료법인 대우의료재단대우병원", "type" : "종합병원", "longitude" : 128.7220923, "latitude" : 34.8719577},
{"name":"의료법인 동강의료재단 동강병원", "type" : "종합병원", "longitude" : 129.3019631, "latitude" : 35.5534261},
{"name":"의료법인 동강의료재단 동천동강병원", "type" : "종합병원", "longitude" : 129.3504382, "latitude" : 35.5685360},
{"name":"의료법인 동해동인병원", "type" : "종합병원", "longitude" : 129.1074625, "latitude" : 37.5299417},
{"name":"의료법인 록향의료재단 신천연합병원", "type" : "종합병원", "longitude" : 126.7894932, "latitude" : 37.4445152},
{"name":"의료법인 명인의료재단 화홍병원", "type" : "종합병원", "longitude" : 126.9639084, "latitude" : 37.2601268},
{"name":"의료법인 명지의료재단 명지병원", "type" : "종합병원", "longitude" : 128.2339510, "latitude" : 37.1634681},
{"name":"의료법인 박애의료재단 박애병원", "type" : "종합병원", "longitude" : 127.0890756, "latitude" : 36.9930636},
{"name":"의료법인 백제병원", "type" : "종합병원", "longitude" : 127.0944739, "latitude" : 36.1921930},
{"name":"의료법인 서명의료재단 세명종합병원", "type" : "종합병원", "longitude" : 128.7371689, "latitude" : 35.8263331},
{"name":"의료법인 석경의료재단 센트럴병원", "type" : "종합병원", "longitude" : 126.7281267, "latitude" : 37.3369084},
{"name":"의료법인 성념의료재단맑은샘병원", "type" : "종합병원", "longitude" : 128.6437581, "latitude" : 34.8978348},
{"name":"의료법인 성수의료재단 인천백병원", "type" : "종합병원", "longitude" : 126.6458376, "latitude" : 37.4817037},
{"name":"의료법인 센텀의료재단 센텀종합병원", "type" : "종합병원", "longitude" : 129.1144194, "latitude" : 35.1668299},
{"name":"의료법인 송은의료재단 울산시티병원", "type" : "종합병원", "longitude" : 129.3590343, "latitude" : 35.5828446},
{"name":"의료법인 양진의료재단 평택성모병원", "type" : "종합병원", "longitude" : 127.0743334, "latitude" : 37.0084186},
{"name":"의료법인 영동의료재단 의정부백병원", "type" : "종합병원", "longitude" : 127.0622375, "latitude" : 37.7453263},
{"name":"의료법인 영서의료재단 천안충무병원", "type" : "종합병원", "longitude" : 127.1314943, "latitude" : 36.7974082},
{"name":"의료법인 영제 의료재단 엔케이세종병원", "type" : "종합병원", "longitude" : 127.2622579, "latitude" : 36.4796231},
{"name":"의료법인 영훈의료재단 대전선병원", "type" : "종합병원", "longitude" : 127.4104139, "latitude" : 36.3360669},
{"name":"의료법인 예당의료재단 예산종합병원", "type" : "종합병원", "longitude" : 126.8379717, "latitude" : 36.6910744},
{"name":"의료법인 오성의료재단 동군산병원", "type" : "종합병원", "longitude" : 126.7371620, "latitude" : 35.9774829},
{"name":"의료법인 온그룹의료재단 온종합병원", "type" : "종합병원", "longitude" : 129.0504284, "latitude" : 35.1574359},
{"name":"의료법인 우범의료재단 장흥종합병원", "type" : "종합병원", "longitude" : 126.9109162, "latitude" : 34.6771315},
{"name":"의료법인 원광의료재단 원광종합병원", "type" : "종합병원", "longitude" : 127.0081096, "latitude" : 37.2101373},
{"name":"의료법인 은성의료재단 좋은강안병원", "type" : "종합병원", "longitude" : 129.1106218, "latitude" : 35.1500685},
{"name":"의료법인 은성의료재단 좋은삼정병원", "type" : "종합병원", "longitude" : 129.2688243, "latitude" : 35.5528955},
{"name":"의료법인 은혜와감사의료재단 화성중앙종합병원", "type" : "종합병원", "longitude" : 126.9108361, "latitude" : 37.1312957},
{"name":"의료법인 인당의료재단 부민병원", "type" : "종합병원", "longitude" : 129.0112115, "latitude" : 35.2119276},
{"name":"의료법인 인당의료재단 해운대부민병원", "type" : "종합병원", "longitude" : 129.1556545, "latitude" : 35.1614208},
{"name":"의료법인 인천사랑병원", "type" : "종합병원", "longitude" : 126.6807094, "latitude" : 37.4622040},
{"name":"의료법인 인화재단 한국병원", "type" : "종합병원", "longitude" : 127.4965380, "latitude" : 36.6195070},
{"name":"의료법인 일심의료재단 포천우리병원", "type" : "종합병원", "longitude" : 127.1481862, "latitude" : 37.8274710},
{"name":"의료법인 자산의료재단 제천서울병원", "type" : "종합병원", "longitude" : 128.2062355, "latitude" : 37.1386110},
{"name":"의료법인 정산의료재단 효성병원", "type" : "종합병원", "longitude" : 127.4953372, "latitude" : 36.6244786},
{"name":"의료법인 정안의료재단 중앙병원", "type" : "종합병원", "longitude" : 129.3046446, "latitude" : 35.5322423},
{"name":"의료법인 중앙의료재단 중앙병원", "type" : "종합병원", "longitude" : 126.4705290, "latitude" : 33.4923256},
{"name":"의료법인 청구성심병원", "type" : "종합병원", "longitude" : 126.9197006, "latitude" : 37.6208615},
{"name":"의료법인 토마스의료재단 윌스기념병원", "type" : "종합병원", "longitude" : 127.0255443, "latitude" : 37.2653229},
{"name":"의료법인 플러스의료재단 단원병원", "type" : "종합병원", "longitude" : 126.8134934, "latitude" : 37.3002024},
{"name":"의료법인 행도의료재단 해동병원", "type" : "종합병원", "longitude" : 129.0438660, "latitude" : 35.0919442},
{"name":"의료법인 혜인의료재단 한국병원", "type" : "종합병원", "longitude" : 126.5170620, "latitude" : 33.5002330},
{"name":"의료법인 힐링의료재단 옥천성모병원", "type" : "종합병원", "longitude" : 127.5720099, "latitude" : 36.3133286},
{"name":"의료법인갑을의료재단 갑을장유병원", "type" : "종합병원", "longitude" : 128.8056169, "latitude" : 35.2086652},
{"name":"의료법인거명의료재단 영광기독병원", "type" : "종합병원", "longitude" : 126.5108770, "latitude" : 35.2749380},
{"name":"의료법인구의료재단 구병원", "type" : "종합병원", "longitude" : 128.5414437, "latitude" : 35.8506236},
{"name":"의료법인대송의료재단 무안병원", "type" : "종합병원", "longitude" : 126.4893985, "latitude" : 34.9916302},
{"name":"의료법인대인의료재단 다니엘종합병원", "type" : "종합병원", "longitude" : 126.7694764, "latitude" : 37.5123067},
{"name":"의료법인덕산의료재단김천제일병원", "type" : "종합병원", "longitude" : 128.1187923, "latitude" : 36.1354003},
{"name":"의료법인동신의료재단 동신병원", "type" : "종합병원", "longitude" : 126.9364251, "latitude" : 37.5813323},
{"name":"의료법인동춘의료재단문경제일병원", "type" : "종합병원", "longitude" : 128.1892250, "latitude" : 36.5844400},
{"name":"의료법인루가의료재단 나은병원", "type" : "종합병원", "longitude" : 126.6797293, "latitude" : 37.4890718},
{"name":"의료법인명지의료재단명지병원", "type" : "종합병원", "longitude" : 126.8312622, "latitude" : 37.6419949},
{"name":"의료법인목포구암의료재단 목포중앙병원", "type" : "종합병원", "longitude" : 126.4210250, "latitude" : 34.8213917},
{"name":"의료법인백송의료재단 굿모닝병원", "type" : "종합병원", "longitude" : 127.1204114, "latitude" : 36.9906277},
{"name":"의료법인보원의료재단 경희대학교 교육협력 중앙병원", "type" : "종합병원", "longitude" : 128.8570753, "latitude" : 35.2307339},
{"name":"의료법인삼백의료재단상주성모병원", "type" : "종합병원", "longitude" : 128.1597338, "latitude" : 36.4203907},
{"name":"의료법인서울효천의료재단 에이치플러스양지병원", "type" : "종합병원", "longitude" : 126.9325692, "latitude" : 37.4841537},
{"name":"의료법인석영의료재단창원제일종합병원", "type" : "종합병원", "longitude" : 128.5676000, "latitude" : 35.1990850},
{"name":"의료법인석천재단고창병원", "type" : "종합병원", "longitude" : 126.6933531, "latitude" : 35.4364278},
{"name":"의료법인성광의료재단일산차병원", "type" : "종합병원", "longitude" : 126.7757374, "latitude" : 37.6541317},
{"name":"의료법인성화의료재단  대한병원", "type" : "종합병원", "longitude" : 127.0226914, "latitude" : 37.6354747},
{"name":"의료법인숭인의료재단 김해복음병원", "type" : "종합병원", "longitude" : 128.8931625, "latitude" : 35.2306263},
{"name":"의료법인안동병원", "type" : "종합병원", "longitude" : 128.7010976, "latitude" : 36.5467408},
{"name":"의료법인영경의료재단전주병원", "type" : "종합병원", "longitude" : 127.1248246, "latitude" : 35.8152645},
{"name":"의료법인영성의료재단 고흥종합병원", "type" : "종합병원", "longitude" : 127.2939625, "latitude" : 34.6210654},
{"name":"의료법인영훈의료재단 유성선병원", "type" : "종합병원", "longitude" : 127.3249507, "latitude" : 36.3751715},
{"name":"의료법인우리의료재단김포우리병원", "type" : "종합병원", "longitude" : 126.7107331, "latitude" : 37.6323325},
{"name":"의료법인은성의료재단좋은삼선병원", "type" : "종합병원", "longitude" : 129.0082462, "latitude" : 35.1504161},
{"name":"의료법인은성의료재단좋은선린병원", "type" : "종합병원", "longitude" : 129.3670367, "latitude" : 36.0482631},
{"name":"의료법인인봉의료재단뉴고려병원", "type" : "종합병원", "longitude" : 126.6602138, "latitude" : 37.6409590},
{"name":"의료법인자인의료재단(더자인병원)", "type" : "종합병원", "longitude" : 126.8357507, "latitude" : 37.6229778},
{"name":"의료법인정화의료재단 봉생기념병원", "type" : "종합병원", "longitude" : 129.0501907, "latitude" : 35.1310265},
{"name":"의료법인청아의료재단청아병원", "type" : "종합병원", "longitude" : 128.5096500, "latitude" : 35.2480350},
{"name":"의료법인청언의료재단 순천제일병원", "type" : "종합병원", "longitude" : 127.5241750, "latitude" : 34.9549263},
{"name":"의료법인칠석의료재단사랑의병원", "type" : "종합병원", "longitude" : 126.8449341, "latitude" : 37.3269254},
{"name":"의료법인풍산의료재단동부제일병원", "type" : "종합병원", "longitude" : 127.1090094, "latitude" : 37.6007085},
{"name":"의료법인한국의료재단 순천한국병원", "type" : "종합병원", "longitude" : 127.5122885, "latitude" : 34.9477666},
{"name":"의료법인한마음의료재단 여수제일병원", "type" : "종합병원", "longitude" : 127.6634937, "latitude" : 34.7661014},
{"name":"의료법인한마음의료재단하나병원", "type" : "종합병원", "longitude" : 127.4308627, "latitude" : 36.6235047},
{"name":"의료법인한성재단포항세명기독병원", "type" : "종합병원", "longitude" : 129.3622256, "latitude" : 36.0177172},
{"name":"의료법인한전의료재단 한일병원", "type" : "종합병원", "longitude" : 127.0291228, "latitude" : 37.6461401},
{"name":"의료법인합포의료재단에스엠지연세병원", "type" : "종합병원", "longitude" : 128.5616013, "latitude" : 35.1863148},
{"name":"의료법인해민의료재단 세안종합병원", "type" : "종합병원", "longitude" : 126.3802331, "latitude" : 34.8168192},
{"name":"의료법인행촌의료재단 해남종합병원", "type" : "종합병원", "longitude" : 126.6127915, "latitude" : 34.5717972},
{"name":"의료법인현경의료재단 광양서울병원", "type" : "종합병원", "longitude" : 127.6905821, "latitude" : 34.9579361},
{"name":"의료법인환명의료재단 조은금강병원", "type" : "종합병원", "longitude" : 128.8615328, "latitude" : 35.2623214},
{"name":"의산의료재단 강릉고려병원", "type" : "종합병원", "longitude" : 128.8998047, "latitude" : 37.7590068},
{"name":"이화여자대학교의과대학부속서울병원", "type" : "종합병원", "longitude" : 126.8362668, "latitude" : 37.5572629},
{"name":"익산병원", "type" : "종합병원", "longitude" : 126.9665159, "latitude" : 35.9616504},
{"name":"인산의료재단 메트로병원", "type" : "종합병원", "longitude" : 126.9352309, "latitude" : 37.3786666},
{"name":"인제대학교 상계백병원", "type" : "종합병원", "longitude" : 127.0629909, "latitude" : 37.6485408},
{"name":"인제대학교 해운대백병원", "type" : "종합병원", "longitude" : 129.1820130, "latitude" : 35.1734430},
{"name":"인제대학교일산백병원", "type" : "종합병원", "longitude" : 126.7504331, "latitude" : 37.6743138},
{"name":"인천광역시의료원", "type" : "종합병원", "longitude" : 126.6687500, "latitude" : 37.4787429},
{"name":"인천기독병원", "type" : "종합병원", "longitude" : 126.6321217, "latitude" : 37.4712157},
{"name":"인천세종병원", "type" : "종합병원", "longitude" : 126.7368717, "latitude" : 37.5324735},
{"name":"인천적십자병원", "type" : "종합병원", "longitude" : 126.6896544, "latitude" : 37.4184945},
{"name":"인천힘찬종합병원", "type" : "종합병원", "longitude" : 126.7147129, "latitude" : 37.4011109},
{"name":"재단법인 아산사회복지재단 부속 보령아산병원", "type" : "종합병원", "longitude" : 126.6228522, "latitude" : 36.3811282},
{"name":"재단법인 아산사회복지재단 정읍아산병원", "type" : "종합병원", "longitude" : 126.8234125, "latitude" : 35.5888321},
{"name":"재단법인베스티안재단베스티안병원", "type" : "종합병원", "longitude" : 127.3216409, "latitude" : 36.6364294},
{"name":"재단법인베스티안재단베스티안서울병원", "type" : "종합병원", "longitude" : 127.0280199, "latitude" : 37.5651103},
{"name":"재단법인예수병원유지재단예수병원", "type" : "종합병원", "longitude" : 127.1332292, "latitude" : 35.8143917},
{"name":"재단법인일신기독교선교회 일신기독병원", "type" : "종합병원", "longitude" : 129.0543811, "latitude" : 35.1357830},
{"name":"재단법인천주교부산교구유지재단 메리놀병원", "type" : "종합병원", "longitude" : 129.0324148, "latitude" : 35.1076838},
{"name":"전라남도 순천의료원", "type" : "종합병원", "longitude" : 127.4834682, "latitude" : 34.9579098},
{"name":"전북특별자치도 군산의료원", "type" : "종합병원", "longitude" : 126.7117407, "latitude" : 35.9549526},
{"name":"전북특별자치도 남원의료원", "type" : "종합병원", "longitude" : 127.4073171, "latitude" : 35.4318756},
{"name":"전주고려병원", "type" : "종합병원", "longitude" : 127.1670378, "latitude" : 35.8398807},
{"name":"제일병원", "type" : "종합병원", "longitude" : 128.0902544, "latitude" : 35.1794723},
{"name":"제주대학교병원", "type" : "종합병원", "longitude" : 126.5452109, "latitude" : 33.4671105},
{"name":"제주특별자치도 서귀포의료원", "type" : "종합병원", "longitude" : 126.5639216, "latitude" : 33.2555355},
{"name":"제주한라병원", "type" : "종합병원", "longitude" : 126.4850403, "latitude" : 33.4899610},
{"name":"조은오산병원", "type" : "종합병원", "longitude" : 127.0681970, "latitude" : 37.1541965},
{"name":"좋은문화병원", "type" : "종합병원", "longitude" : 129.0590919, "latitude" : 35.1408881},
{"name":"중앙대학교광명병원", "type" : "종합병원", "longitude" : 126.8859100, "latitude" : 37.4245975},
{"name":"진주고려병원", "type" : "종합병원", "longitude" : 128.0920865, "latitude" : 35.1784916},
{"name":"차의과학대학교 강남차병원", "type" : "종합병원", "longitude" : 127.0345427, "latitude" : 37.5067005},
{"name":"차의과학대학교부속구미차병원", "type" : "종합병원", "longitude" : 128.3405414, "latitude" : 36.1145325},
{"name":"차의과학대학교분당차병원", "type" : "종합병원", "longitude" : 127.1254535, "latitude" : 37.4102384},
{"name":"참조은병원", "type" : "종합병원", "longitude" : 127.2602541, "latitude" : 37.4109627},
{"name":"창원경상국립대학교병원", "type" : "종합병원", "longitude" : 128.7078463, "latitude" : 35.1990873},
{"name":"창원파티마병원", "type" : "종합병원", "longitude" : 128.6459130, "latitude" : 35.2372930},
{"name":"창원한마음병원", "type" : "종합병원", "longitude" : 128.6990272, "latitude" : 35.2379477},
{"name":"첨단종합병원", "type" : "종합병원", "longitude" : 126.8453041, "latitude" : 35.2211088},
{"name":"청주성모병원", "type" : "종합병원", "longitude" : 127.4856545, "latitude" : 36.6737973},
{"name":"추병원", "type" : "종합병원", "longitude" : 127.0450722, "latitude" : 37.7497898},
{"name":"충청남도 공주의료원", "type" : "종합병원", "longitude" : 127.1094762, "latitude" : 36.4589870},
{"name":"충청남도 서산의료원", "type" : "종합병원", "longitude" : 126.4652578, "latitude" : 36.7755835},
{"name":"충청남도 천안의료원", "type" : "종합병원", "longitude" : 127.1791797, "latitude" : 36.7756271},
{"name":"충청남도 홍성의료원", "type" : "종합병원", "longitude" : 126.6744130, "latitude" : 36.5993490},
{"name":"충청북도 청주의료원", "type" : "종합병원", "longitude" : 127.4730326, "latitude" : 36.6402026},
{"name":"충청북도 충주의료원", "type" : "종합병원", "longitude" : 127.9706116, "latitude" : 36.9796506},
{"name":"포항성모병원", "type" : "종합병원", "longitude" : 129.3399527, "latitude" : 36.0159003},
{"name":"하남성심병원", "type" : "종합병원", "longitude" : 126.8009586, "latitude" : 35.1666556},
{"name":"학교법인 가톨릭학원 가톨릭대학교 대전성모병원", "type" : "종합병원", "longitude" : 127.4201630, "latitude" : 36.3230420},
{"name":"학교법인 을지학원 대전을지대학교병원", "type" : "종합병원", "longitude" : 127.3819888, "latitude" : 36.3553098},
{"name":"학교법인 을지학원 의정부을지대학교병원", "type" : "종합병원", "longitude" : 127.0506997, "latitude" : 37.7518185},
{"name":"학교법인 춘해병원", "type" : "종합병원", "longitude" : 129.0583786, "latitude" : 35.1469602},
{"name":"학교법인)동의병원", "type" : "종합병원", "longitude" : 129.0765140, "latitude" : 35.1698203},
{"name":"한국보훈복지의료공단 대구보훈병원", "type" : "종합병원", "longitude" : 128.5519785, "latitude" : 35.8028206},
{"name":"한국보훈복지의료공단 부산보훈병원", "type" : "종합병원", "longitude" : 129.0065750, "latitude" : 35.1533821},
{"name":"한국보훈복지의료공단 중앙보훈병원", "type" : "종합병원", "longitude" : 127.1478691, "latitude" : 37.5303393},
{"name":"한국원자력의학원원자력병원", "type" : "종합병원", "longitude" : 127.0824199, "latitude" : 37.6288668},
{"name":"한림대학교 강남성심병원", "type" : "종합병원", "longitude" : 126.9086527, "latitude" : 37.4937262},
{"name":"한림대학교 한강성심병원", "type" : "종합병원", "longitude" : 126.9096811, "latitude" : 37.5231702},
{"name":"한림대학교동탄성심병원", "type" : "종합병원", "longitude" : 127.0801288, "latitude" : 37.2166284},
{"name":"한림대학교춘천성심병원", "type" : "종합병원", "longitude" : 127.7399592, "latitude" : 37.8840791},
{"name":"한림병원", "type" : "종합병원", "longitude" : 126.7343513, "latitude" : 37.5320982},
{"name":"한마음병원", "type" : "종합병원", "longitude" : 126.5462386, "latitude" : 33.4962868},
{"name":"한양대학교구리병원", "type" : "종합병원", "longitude" : 127.1324273, "latitude" : 37.6012985},
{"name":"한일병원", "type" : "종합병원", "longitude" : 128.1285557, "latitude" : 35.1669944},
{"name":"해남우리종합병원", "type" : "종합병원", "longitude" : 126.6465633, "latitude" : 34.5842521},
{"name":"해피뷰병원", "type" : "종합병원", "longitude" : 126.9067730, "latitude" : 35.1586417},
{"name":"현대병원", "type" : "종합병원", "longitude" : 127.1798820, "latitude" : 37.7154268},
{"name":"현대유비스병원", "type" : "종합병원", "longitude" : 126.6429995, "latitude" : 37.4615989},
{"name":"혜민병원", "type" : "종합병원", "longitude" : 127.0836246, "latitude" : 37.5354079},
{"name":"홍익병원", "type" : "종합병원", "longitude" : 126.8636551, "latitude" : 37.5284838},
{"name":"홍천아산병원", "type" : "종합병원", "longitude" : 127.8948538, "latitude" : 37.6908303},
{"name":"효산의료재단 안양샘병원", "type" : "종합병원", "longitude" : 126.9243940, "latitude" : 37.3935234},
{"name":"효산의료재단 지샘병원", "type" : "종합병원", "longitude" : 126.9473164, "latitude" : 37.3586720},
{"name":"희명병원", "type" : "종합병원", "longitude" : 126.9005836, "latitude" : 37.4556869}]